{"type":"FeatureCollection","features":[{"type":"Feature","geometry":{"type":"Point","coordinates":[121.5161362,31.2241459]},"properties":{"2008":"74","2009":"65","2010":"71","2011":"65","2012":"60","2013":"70","2014":"112","City":"Shanghai"}},{"type":"Feature","geometry":{"type":"Point","coordinates":[87.5862732,43.7878685]},"properties":{"2008":"207","2009":"206","2010":"137","2011":"146","2012":"223","2013":"151","2014":"139","City":"Urumqi"}},{"type":"Feature","geometry":{"type":"Point","coordinates":[103.7502136,36.0699615]},"properties":{"2008":"121","2009":"98","2010":"120","2011":"105","2012":"110","2013":"97","2014":"118","City":"Lanzhou"}},{"type":"Feature","geometry":{"type":"Point","coordinates":[116.3876495,39.9065704]},"properties":{"2008":"83","2009":"82","2010":"79","2011":"51","2012":"86","2013":"126","2014":"139","City":"Beijing"}},{"type":"Feature","geometry":{"type":"Point","coordinates":[118.0895386,24.4596405]},"properties":{"2008":"68","2009":"57","2010":"67","2011":"59","2012":"46","2013":"52","2014":"93","City":"Xiamen"}},{"type":"Feature","geometry":{"type":"Point","coordinates":[111.6611023,40.8317299]},"properties":{"2008":"76","2009":"85","2010":"82","2011":"59","2012":"79","2013":"107","2014":"99","City":"Hohhot"}},{"type":"Feature","geometry":{"type":"Point","coordinates":[126.6395111,45.7555313]},"properties":{"2008":"84","2009":"102","2010":"83","2011":"93","2012":"81","2013":"153","2014":"165","City":"Harbin"}},{"type":"Feature","geometry":{"type":"Point","coordinates":[121.5577011,38.8995514]},"properties":{"2008":"72","2009":"66","2010":"69","2011":"67","2012":"74","2013":"97","2014":"110","City":"Dalian"}},{"type":"Feature","geometry":{"type":"Point","coordinates":[113.2552338,23.1133709]},"properties":{"2008":"58","2009":"69","2010":"72","2011":"58","2012":"49","2013":"62","2014":"127","City":"Guangzhou"}},{"type":"Feature","geometry":{"type":"Point","coordinates":[104.075798,30.6718998]},"properties":{"2008":"88","2009":"96","2010":"110","2011":"87","2012":"72","2013":"135","2014":"223","City":"Chengdu"}},{"type":"Feature","geometry":{"type":"Point","coordinates":[91.171072,29.653273]},"properties":{"2008":"71","2009":"49","2010":"46","2011":"48","2012":"42","2013":"70","2014":"149","City":"Lhasa"}},{"type":"Feature","geometry":{"type":"Point","coordinates":[102.6987686,25.0645294]},"properties":{"2008":"68","2009":"61","2010":"77","2011":"54","2012":"54","2013":"86","2014":"105","City":"Kunming"}},{"type":"Feature","geometry":{"type":"Point","coordinates":[114.2532578,30.5534954]},"properties":{"2008":"93","2009":"84","2010":"96","2011":"75","2012":"85","2013":"112","2014":"222","City":"Wuhan"}},{"type":"Feature","geometry":{"type":"Point","coordinates":[108.9318314,34.2632484]},"properties":{"2008":"84","2009":"104","2010":"95","2011":"105","2012":"105","2013":"199","2014":"182","City":"Xi'an"}},{"type":"Feature","geometry":{"type":"Point","coordinates":[113.6594086,34.7640305]},"properties":{"2008":"83","2009":"87","2010":"89","2011":"81","2012":"108","2013":"226","2014":"166","City":"Zhengzhou"}}]}