{"type":"FeatureCollection","features":[{"type":"Feature","properties":{"2008":73.77419355,"2009":65.25806452,"2010":70.90322581,"2011":64.7,"2012":59.90322581,"2013":70.07142857,"2014":112.1428571,"City":"Shanghai"},"geometry":{"type":"Point","coordinates":[121.5161362,31.2241459]}},{"type":"Feature","properties":{"2008":206.9032258,"2009":206.0967742,"2010":136.7419355,"2011":146.2666667,"2012":223.3,"2013":150.7857143,"2014":139,"City":"Wulumuqi"},"geometry":{"type":"Point","coordinates":[87.5862732,43.7878685]}},{"type":"Feature","properties":{"2008":121.2903226,"2009":97.61290323,"2010":120.3870968,"2011":104.8709677,"2012":110.1,"2013":96.93333333,"2014":117.9677419,"City":"Lanzhou"},"geometry":{"type":"Point","coordinates":[103.7502136,36.0699615]}},{"type":"Feature","properties":{"2008":83.35483871,"2009":81.96774194,"2010":78.64516129,"2011":51.13333333,"2012":85.51612903,"2013":125.9285714,"2014":139.0625,"City":"Beijing"},"geometry":{"type":"Point","coordinates":[116.3876495,39.9065704]}},{"type":"Feature","properties":{"2008":68.25806452,"2009":57.41935484,"2010":66.96774194,"2011":58.64516129,"2012":46,"2013":51.76923077,"2014":93.25,"City":"Xiamen"},"geometry":{"type":"Point","coordinates":[118.0895386,24.4596405]}},{"type":"Feature","properties":{"2008":75.77419355,"2009":84.80645161,"2010":81.64516129,"2011":59.4,"2012":78.90322581,"2013":107.0714286,"2014":98.84375,"City":"Huhehaote"},"geometry":{"type":"Point","coordinates":[111.6611023,40.8317299]}},{"type":"Feature","properties":{"2008":84.41935484,"2009":102.3548387,"2010":82.87096774,"2011":92.7,"2012":80.96774194,"2013":152.5714286,"2014":165.40625,"City":"Haerbin"},"geometry":{"type":"Point","coordinates":[126.6395111,45.7555313]}},{"type":"Feature","properties":{"2008":71.90322581,"2009":65.96774194,"2010":68.51612903,"2011":66.5,"2012":74.19354839,"2013":97.35714286,"2014":110.4375,"City":"Dalian"},"geometry":{"type":"Point","coordinates":[121.5577011,38.8995514]}},{"type":"Feature","properties":{"2008":57.77419355,"2009":68.70967742,"2010":72.3,"2011":57.58064516,"2012":48.73333333,"2013":61.5,"2014":126.5454545,"City":"Guangzhou"},"geometry":{"type":"Point","coordinates":[113.2552338,23.1133709]}},{"type":"Feature","properties":{"2008":87.87096774,"2009":95.51612903,"2010":109.6666667,"2011":86.77419355,"2012":71.63333333,"2013":134.5714286,"2014":223.2424242,"City":"Chengdu"},"geometry":{"type":"Point","coordinates":[104.075798,30.6718998]}},{"type":"Feature","properties":{"2008":70.87096774,"2009":48.67741935,"2010":46.43333333,"2011":48.19354839,"2012":42.26666667,"2013":70,"2014":148.7272727,"City":"Lasha"},"geometry":{"type":"Point","coordinates":[91.171072,29.653273]}},{"type":"Feature","properties":{"2008":68.03225806,"2009":60.96774194,"2010":76.7,"2011":54.19354839,"2012":54.2,"2013":85.71428571,"2014":104.5757576,"City":"Kunming"},"geometry":{"type":"Point","coordinates":[102.6987686,25.0645294]}},{"type":"Feature","properties":{"2008":92.61290323,"2009":84.4516129,"2010":96.33333333,"2011":74.64516129,"2012":85.43333333,"2013":111.8461538,"2014":222.4117647,"City":"Wuhan"},"geometry":{"type":"Point","coordinates":[114.2532578,30.5534954]}},{"type":"Feature","properties":{"2008":84.41935484,"2009":103.6774194,"2010":95.33333333,"2011":104.9354839,"2012":104.8666667,"2013":199.0714286,"2014":181.6969697,"City":"Xian"},"geometry":{"type":"Point","coordinates":[108.9318314,34.2632484]}},{"type":"Feature","properties":{"2008":82.80645161,"2009":86.77419355,"2010":89.4516129,"2011":81.38709677,"2012":108.1333333,"2013":226.3846154,"2014":166.0909091,"City":"Zhengzhou"},"geometry":{"type":"Point","coordinates":[113.6594086,34.7640305]}}]}